name: [ground_plane, MIT_Tunnel, racecar]
pose: 
  - 
    position: 
      x: 0.0
      y: 0.0
      z: 0.0
    orientation: 
      x: 0.0
      y: 0.0
      z: 0.0
      w: 1.0
  - 
    position: 
      x: 6.0
      y: 20.0
      z: 0.0
    orientation: 
      x: 0.0
      y: 0.0
      z: 0.0
      w: 1.0
  - 
    position: 
      x: -7.33705523892e-05
      y: -1.64160211254e-07
      z: -6.63873255077e-07
    orientation: 
      x: -5.30366748558e-10
      y: 9.06097852695e-07
      z: -1.40854965332e-06
      w: 0.999999999999
twist: 
  - 
    linear: 
      x: 0.0
      y: 0.0
      z: 0.0
    angular: 
      x: 0.0
      y: 0.0
      z: 0.0
  - 
    linear: 
      x: 0.0
      y: 0.0
      z: 0.0
    angular: 
      x: 0.0
      y: 0.0
      z: 0.0
  - 
    linear: 
      x: 4.23991958931e-08
      y: -3.10169886027e-07
      z: 6.58109540399e-06
    angular: 
      x: 7.57344635282e-07
      y: -6.28278223506e-06
      z: 1.86333868629e-07
---
name: [ground_plane, MIT_Tunnel, racecar]
pose: 
  - 
    position: 
      x: 0.0
      y: 0.0
      z: 0.0
    orientation: 
      x: 0.0
      y: 0.0
      z: 0.0
      w: 1.0
  - 
    position: 
      x: 6.0
      y: 20.0
      z: 0.0
    orientation: 
      x: 0.0
      y: 0.0
      z: 0.0
      w: 1.0
  - 
    position: 
      x: -7.33708321357e-05
      y: -1.64164232006e-07
      z: -6.63873252316e-07
    orientation: 
      x: -5.30362861712e-10
      y: 9.06097787525e-07
      z: -1.40855893006e-06
      w: 0.999999999999
twist: 
  - 
    linear: 
      x: 0.0
      y: 0.0
      z: 0.0
    angular: 
      x: 0.0
      y: 0.0
      z: 0.0
  - 
    linear: 
      x: 0.0
      y: 0.0
      z: 0.0
    angular: 
      x: 0.0
      y: 0.0
      z: 0.0
  - 
    linear: 
      x: 4.23995869508e-08
      y: -3.10169879218e-07
      z: 6.58109538515e-06
    angular: 
      x: 7.57344649579e-07
      y: -6.28278317532e-06
      z: 1.86333850748e-07
---
name: [ground_plane, MIT_Tunnel, racecar]
pose: 
  - 
    position: 
      x: 0.0
      y: 0.0
      z: 0.0
    orientation: 
      x: 0.0
      y: 0.0
      z: 0.0
      w: 1.0
  - 
    position: 
      x: 6.0
      y: 20.0
      z: 0.0
    orientation: 
      x: 0.0
      y: 0.0
      z: 0.0
      w: 1.0
  - 
    position: 
      x: -7.33711118819e-05
      y: -1.64168252763e-07
      z: -6.63873249554e-07
    orientation: 
      x: -5.30358964171e-10
      y: 9.06097722352e-07
      z: -1.40856820679e-06
      w: 0.999999999999
twist: 
  - 
    linear: 
      x: 0.0
      y: 0.0
      z: 0.0
    angular: 
      x: 0.0
      y: 0.0
      z: 0.0
  - 
    linear: 
      x: 0.0
      y: 0.0
      z: 0.0
    angular: 
      x: 0.0
      y: 0.0
      z: 0.0
  - 
    linear: 
      x: 4.2399979315e-08
      y: -3.10169881785e-07
      z: 6.58109536966e-06
    angular: 
      x: 7.57344713832e-07
      y: -6.28278412893e-06
      z: 1.86333876794e-07
---
name: [ground_plane, MIT_Tunnel, racecar]
pose: 
  - 
    position: 
      x: 0.0
      y: 0.0
      z: 0.0
    orientation: 
      x: 0.0
      y: 0.0
      z: 0.0
      w: 1.0
  - 
    position: 
      x: 6.0
      y: 20.0
      z: 0.0
    orientation: 
      x: 0.0
      y: 0.0
      z: 0.0
      w: 1.0
  - 
    position: 
      x: -7.33713916278e-05
      y: -1.64172273521e-07
      z: -6.63873246799e-07
    orientation: 
      x: -5.30355070782e-10
      y: 9.0609765718e-07
      z: -1.40857748351e-06
      w: 0.999999999999
twist: 
  - 
    linear: 
      x: 0.0
      y: 0.0
      z: 0.0
    angular: 
      x: 0.0
      y: 0.0
      z: 0.0
  - 
    linear: 
      x: 0.0
      y: 0.0
      z: 0.0
    angular: 
      x: 0.0
      y: 0.0
      z: 0.0
  - 
    linear: 
      x: 4.24003693872e-08
      y: -3.10169882076e-07
      z: 6.58109534854e-06
    angular: 
      x: 7.57344748449e-07
      y: -6.28278507474e-06
      z: 1.86333919658e-07
---
name: [ground_plane, MIT_Tunnel, racecar]
pose: 
  - 
    position: 
      x: 0.0
      y: 0.0
      z: 0.0
    orientation: 
      x: 0.0
      y: 0.0
      z: 0.0
      w: 1.0
  - 
    position: 
      x: 6.0
      y: 20.0
      z: 0.0
    orientation: 
      x: 0.0
      y: 0.0
      z: 0.0
      w: 1.0
  - 
    position: 
      x: -7.33716713733e-05
      y: -1.64176294274e-07
      z: -6.63873244044e-07
    orientation: 
      x: -5.30351165876e-10
      y: 9.06097592029e-07
      z: -1.40858676027e-06
      w: 0.999999999999
twist: 
  - 
    linear: 
      x: 0.0
      y: 0.0
      z: 0.0
    angular: 
      x: 0.0
      y: 0.0
      z: 0.0
  - 
    linear: 
      x: 0.0
      y: 0.0
      z: 0.0
    angular: 
      x: 0.0
      y: 0.0
      z: 0.0
  - 
    linear: 
      x: 4.24007562807e-08
      y: -3.10169875371e-07
      z: 6.58109533171e-06
    angular: 
      x: 7.57344814437e-07
      y: -6.2827859773e-06
      z: 1.86333878087e-07
---
name: [ground_plane, MIT_Tunnel, racecar]
pose: 
  - 
    position: 
      x: 0.0
      y: 0.0
      z: 0.0
    orientation: 
      x: 0.0
      y: 0.0
      z: 0.0
      w: 1.0
  - 
    position: 
      x: 6.0
      y: 20.0
      z: 0.0
    orientation: 
      x: 0.0
      y: 0.0
      z: 0.0
      w: 1.0
  - 
    position: 
      x: -7.33719511186e-05
      y: -1.64180315028e-07
      z: -6.6387324129e-07
    orientation: 
      x: -5.3034728306e-10
      y: 9.06097526871e-07
      z: -1.40859603701e-06
      w: 0.999999999999
twist: 
  - 
    linear: 
      x: 0.0
      y: 0.0
      z: 0.0
    angular: 
      x: 0.0
      y: 0.0
      z: 0.0
  - 
    linear: 
      x: 0.0
      y: 0.0
      z: 0.0
    angular: 
      x: 0.0
      y: 0.0
      z: 0.0
  - 
    linear: 
      x: 4.24011480018e-08
      y: -3.10169875273e-07
      z: 6.58109531443e-06
    angular: 
      x: 7.57344813205e-07
      y: -6.28278693814e-06
      z: 1.86333910851e-07
---
name: [ground_plane, MIT_Tunnel, racecar]
pose: 
  - 
    position: 
      x: 0.0
      y: 0.0
      z: 0.0
    orientation: 
      x: 0.0
      y: 0.0
      z: 0.0
      w: 1.0
  - 
    position: 
      x: 6.0
      y: 20.0
      z: 0.0
    orientation: 
      x: 0.0
      y: 0.0
      z: 0.0
      w: 1.0
  - 
    position: 
      x: -7.33722308634e-05
      y: -1.64184335784e-07
      z: -6.63873238535e-07
    orientation: 
      x: -5.30343389782e-10
      y: 9.06097461703e-07
      z: -1.40860531376e-06
      w: 0.999999999999
twist: 
  - 
    linear: 
      x: 0.0
      y: 0.0
      z: 0.0
    angular: 
      x: 0.0
      y: 0.0
      z: 0.0
  - 
    linear: 
      x: 0.0
      y: 0.0
      z: 0.0
    angular: 
      x: 0.0
      y: 0.0
      z: 0.0
  - 
    linear: 
      x: 4.24015397373e-08
      y: -3.10169875133e-07
      z: 6.58109529355e-06
    angular: 
      x: 7.57344877017e-07
      y: -6.28278790682e-06
      z: 1.86333941612e-07
---
name: [ground_plane, MIT_Tunnel, racecar]
pose: 
  - 
    position: 
      x: 0.0
      y: 0.0
      z: 0.0
    orientation: 
      x: 0.0
      y: 0.0
      z: 0.0
      w: 1.0
  - 
    position: 
      x: 6.0
      y: 20.0
      z: 0.0
    orientation: 
      x: 0.0
      y: 0.0
      z: 0.0
      w: 1.0
  - 
    position: 
      x: -7.33725106079e-05
      y: -1.64188356541e-07
      z: -6.63873235766e-07
    orientation: 
      x: -5.30339500557e-10
      y: 9.06097396545e-07
      z: -1.4086145905e-06
      w: 0.999999999999
twist: 
  - 
    linear: 
      x: 0.0
      y: 0.0
      z: 0.0
    angular: 
      x: 0.0
      y: 0.0
      z: 0.0
  - 
    linear: 
      x: 0.0
      y: 0.0
      z: 0.0
    angular: 
      x: 0.0
      y: 0.0
      z: 0.0
  - 
    linear: 
      x: 4.24019298162e-08
      y: -3.1016987559e-07
      z: 6.58109527939e-06
    angular: 
      x: 7.5734491186e-07
      y: -6.28278883108e-06
      z: 1.86333966843e-07
---
name: [ground_plane, MIT_Tunnel, racecar]
pose: 
  - 
    position: 
      x: 0.0
      y: 0.0
      z: 0.0
    orientation: 
      x: 0.0
      y: 0.0
      z: 0.0
      w: 1.0
  - 
    position: 
      x: 6.0
      y: 20.0
      z: 0.0
    orientation: 
      x: 0.0
      y: 0.0
      z: 0.0
      w: 1.0
  - 
    position: 
      x: -7.3372790352e-05
      y: -1.641923773e-07
      z: -6.63873233005e-07
    orientation: 
      x: -5.30335608904e-10
      y: 9.06097331396e-07
      z: -1.40862386724e-06
      w: 0.999999999999
twist: 
  - 
    linear: 
      x: 0.0
      y: 0.0
      z: 0.0
    angular: 
      x: 0.0
      y: 0.0
      z: 0.0
  - 
    linear: 
      x: 0.0
      y: 0.0
      z: 0.0
    angular: 
      x: 0.0
      y: 0.0
      z: 0.0
  - 
    linear: 
      x: 4.2402319664e-08
      y: -3.10169874824e-07
      z: 6.5810952587e-06
    angular: 
      x: 7.57344959638e-07
      y: -6.28278976123e-06
      z: 1.86333978491e-07
---
name: [ground_plane, MIT_Tunnel, racecar]
pose: 
  - 
    position: 
      x: 0.0
      y: 0.0
      z: 0.0
    orientation: 
      x: 0.0
      y: 0.0
      z: 0.0
      w: 1.0
  - 
    position: 
      x: 6.0
      y: 20.0
      z: 0.0
    orientation: 
      x: 0.0
      y: 0.0
      z: 0.0
      w: 1.0
  - 
    position: 
      x: -7.33730700959e-05
      y: -1.64196398055e-07
      z: -6.63873230257e-07
    orientation: 
      x: -5.30331708596e-10
      y: 9.06097266255e-07
      z: -1.40863314397e-06
      w: 0.999999999999
twist: 
  - 
    linear: 
      x: 0.0
      y: 0.0
      z: 0.0
    angular: 
      x: 0.0
      y: 0.0
      z: 0.0
  - 
    linear: 
      x: 0.0
      y: 0.0
      z: 0.0
    angular: 
      x: 0.0
      y: 0.0
      z: 0.0
  - 
    linear: 
      x: 4.24027093412e-08
      y: -3.10169870054e-07
      z: 6.58109524016e-06
    angular: 
      x: 7.57345019837e-07
      y: -6.28279068913e-06
      z: 1.86334031328e-07
---
name: [ground_plane, MIT_Tunnel, racecar]
pose: 
  - 
    position: 
      x: 0.0
      y: 0.0
      z: 0.0
    orientation: 
      x: 0.0
      y: 0.0
      z: 0.0
      w: 1.0
  - 
    position: 
      x: 6.0
      y: 20.0
      z: 0.0
    orientation: 
      x: 0.0
      y: 0.0
      z: 0.0
      w: 1.0
  - 
    position: 
      x: -7.33733498393e-05
      y: -1.64200418809e-07
      z: -6.63873227502e-07
    orientation: 
      x: -5.30327813315e-10
      y: 9.06097201107e-07
      z: -1.40864242071e-06
      w: 0.999999999999
twist: 
  - 
    linear: 
      x: 0.0
      y: 0.0
      z: 0.0
    angular: 
      x: 0.0
      y: 0.0
      z: 0.0
  - 
    linear: 
      x: 0.0
      y: 0.0
      z: 0.0
    angular: 
      x: 0.0
      y: 0.0
      z: 0.0
  - 
    linear: 
      x: 4.24030980617e-08
      y: -3.10169867804e-07
      z: 6.58109522197e-06
    angular: 
      x: 7.57345052682e-07
      y: -6.28279165151e-06
      z: 1.86334011198e-07
---
name: [ground_plane, MIT_Tunnel, racecar]
pose: 
  - 
    position: 
      x: 0.0
      y: 0.0
      z: 0.0
    orientation: 
      x: 0.0
      y: 0.0
      z: 0.0
      w: 1.0
  - 
    position: 
      x: 6.0
      y: 20.0
      z: 0.0
    orientation: 
      x: 0.0
      y: 0.0
      z: 0.0
      w: 1.0
  - 
    position: 
      x: -7.33736295825e-05
      y: -1.64204439564e-07
      z: -6.63873224747e-07
    orientation: 
      x: -5.30323924155e-10
      y: 9.06097135962e-07
      z: -1.40865169745e-06
      w: 0.999999999999
twist: 
  - 
    linear: 
      x: 0.0
      y: 0.0
      z: 0.0
    angular: 
      x: 0.0
      y: 0.0
      z: 0.0
  - 
    linear: 
      x: 0.0
      y: 0.0
      z: 0.0
    angular: 
      x: 0.0
      y: 0.0
      z: 0.0
  - 
    linear: 
      x: 4.24034894444e-08
      y: -3.10169867036e-07
      z: 6.58109520271e-06
    angular: 
      x: 7.57345083417e-07
      y: -6.28279259269e-06
      z: 1.86334055725e-07
---
name: [ground_plane, MIT_Tunnel, racecar]
pose: 
  - 
    position: 
      x: 0.0
      y: 0.0
      z: 0.0
    orientation: 
      x: 0.0
      y: 0.0
      z: 0.0
      w: 1.0
  - 
    position: 
      x: 6.0
      y: 20.0
      z: 0.0
    orientation: 
      x: 0.0
      y: 0.0
      z: 0.0
      w: 1.0
  - 
    position: 
      x: -7.33739093253e-05
      y: -1.64208460321e-07
      z: -6.63873221993e-07
    orientation: 
      x: -5.3032002528e-10
      y: 9.06097070829e-07
      z: -1.40866097419e-06
      w: 0.999999999999
twist: 
  - 
    linear: 
      x: 0.0
      y: 0.0
      z: 0.0
    angular: 
      x: 0.0
      y: 0.0
      z: 0.0
  - 
    linear: 
      x: 0.0
      y: 0.0
      z: 0.0
    angular: 
      x: 0.0
      y: 0.0
      z: 0.0
  - 
    linear: 
      x: 4.24038770214e-08
      y: -3.10169867139e-07
      z: 6.58109518514e-06
    angular: 
      x: 7.57345145693e-07
      y: -6.28279351298e-06
      z: 1.86334059186e-07
---
name: [ground_plane, MIT_Tunnel, racecar]
pose: 
  - 
    position: 
      x: 0.0
      y: 0.0
      z: 0.0
    orientation: 
      x: 0.0
      y: 0.0
      z: 0.0
      w: 1.0
  - 
    position: 
      x: 6.0
      y: 20.0
      z: 0.0
    orientation: 
      x: 0.0
      y: 0.0
      z: 0.0
      w: 1.0
  - 
    position: 
      x: -7.33741890677e-05
      y: -1.64212481084e-07
      z: -6.63873219238e-07
    orientation: 
      x: -5.30316139862e-10
      y: 9.06097005699e-07
      z: -1.40867025092e-06
      w: 0.999999999999
twist: 
  - 
    linear: 
      x: 0.0
      y: 0.0
      z: 0.0
    angular: 
      x: 0.0
      y: 0.0
      z: 0.0
  - 
    linear: 
      x: 0.0
      y: 0.0
      z: 0.0
    angular: 
      x: 0.0
      y: 0.0
      z: 0.0
  - 
    linear: 
      x: 4.24042687687e-08
      y: -3.10169871695e-07
      z: 6.58109516835e-06
    angular: 
      x: 7.57345161642e-07
      y: -6.28279445529e-06
      z: 1.86334112661e-07
---
name: [ground_plane, MIT_Tunnel, racecar]
pose: 
  - 
    position: 
      x: 0.0
      y: 0.0
      z: 0.0
    orientation: 
      x: 0.0
      y: 0.0
      z: 0.0
      w: 1.0
  - 
    position: 
      x: 6.0
      y: 20.0
      z: 0.0
    orientation: 
      x: 0.0
      y: 0.0
      z: 0.0
      w: 1.0
  - 
    position: 
      x: -7.33744688098e-05
      y: -1.64216501838e-07
      z: -6.6387321649e-07
    orientation: 
      x: -5.30312238757e-10
      y: 9.06096940563e-07
      z: -1.40867952766e-06
      w: 0.999999999999
twist: 
  - 
    linear: 
      x: 0.0
      y: 0.0
      z: 0.0
    angular: 
      x: 0.0
      y: 0.0
      z: 0.0
  - 
    linear: 
      x: 0.0
      y: 0.0
      z: 0.0
    angular: 
      x: 0.0
      y: 0.0
      z: 0.0
  - 
    linear: 
      x: 4.24046594495e-08
      y: -3.10169861932e-07
      z: 6.58109515041e-06
    angular: 
      x: 7.57345236014e-07
      y: -6.28279541184e-06
      z: 1.86334110848e-07
---
name: [ground_plane, MIT_Tunnel, racecar]
pose: 
  - 
    position: 
      x: 0.0
      y: 0.0
      z: 0.0
    orientation: 
      x: 0.0
      y: 0.0
      z: 0.0
      w: 1.0
  - 
    position: 
      x: 6.0
      y: 20.0
      z: 0.0
    orientation: 
      x: 0.0
      y: 0.0
      z: 0.0
      w: 1.0
  - 
    position: 
      x: -7.33747485516e-05
      y: -1.64220522589e-07
      z: -6.63873213735e-07
    orientation: 
      x: -5.30308355497e-10
      y: 9.06096875429e-07
      z: -1.40868880442e-06
      w: 0.999999999999
twist: 
  - 
    linear: 
      x: 0.0
      y: 0.0
      z: 0.0
    angular: 
      x: 0.0
      y: 0.0
      z: 0.0
  - 
    linear: 
      x: 0.0
      y: 0.0
      z: 0.0
    angular: 
      x: 0.0
      y: 0.0
      z: 0.0
  - 
    linear: 
      x: 4.24050491065e-08
      y: -3.10169856856e-07
      z: 6.58109513405e-06
    angular: 
      x: 7.57345243258e-07
      y: -6.28279635387e-06
      z: 1.86334083653e-07
---
name: [ground_plane, MIT_Tunnel, racecar]
pose: 
  - 
    position: 
      x: 0.0
      y: 0.0
      z: 0.0
    orientation: 
      x: 0.0
      y: 0.0
      z: 0.0
      w: 1.0
  - 
    position: 
      x: 6.0
      y: 20.0
      z: 0.0
    orientation: 
      x: 0.0
      y: 0.0
      z: 0.0
      w: 1.0
  - 
    position: 
      x: -7.3375028293e-05
      y: -1.64224543349e-07
      z: -6.63873210967e-07
    orientation: 
      x: -5.30304476963e-10
      y: 9.06096810293e-07
      z: -1.40869808117e-06
      w: 0.999999999999
twist: 
  - 
    linear: 
      x: 0.0
      y: 0.0
      z: 0.0
    angular: 
      x: 0.0
      y: 0.0
      z: 0.0
  - 
    linear: 
      x: 0.0
      y: 0.0
      z: 0.0
    angular: 
      x: 0.0
      y: 0.0
      z: 0.0
  - 
    linear: 
      x: 4.24054393506e-08
      y: -3.10169864466e-07
      z: 6.58109510906e-06
    angular: 
      x: 7.57345276569e-07
      y: -6.28279730589e-06
      z: 1.86334127384e-07
---
name: [ground_plane, MIT_Tunnel, racecar]
pose: 
  - 
    position: 
      x: 0.0
      y: 0.0
      z: 0.0
    orientation: 
      x: 0.0
      y: 0.0
      z: 0.0
      w: 1.0
  - 
    position: 
      x: 6.0
      y: 20.0
      z: 0.0
    orientation: 
      x: 0.0
      y: 0.0
      z: 0.0
      w: 1.0
  - 
    position: 
      x: -7.33753080341e-05
      y: -1.64228564108e-07
      z: -6.63873208219e-07
    orientation: 
      x: -5.30300584421e-10
      y: 9.06096745175e-07
      z: -1.4087073579e-06
      w: 0.999999999999
twist: 
  - 
    linear: 
      x: 0.0
      y: 0.0
      z: 0.0
    angular: 
      x: 0.0
      y: 0.0
      z: 0.0
  - 
    linear: 
      x: 0.0
      y: 0.0
      z: 0.0
    angular: 
      x: 0.0
      y: 0.0
      z: 0.0
  - 
    linear: 
      x: 4.24058280982e-08
      y: -3.10169861639e-07
      z: 6.58109509454e-06
    angular: 
      x: 7.57345347579e-07
      y: -6.28279821489e-06
      z: 1.86334173629e-07
---
name: [ground_plane, MIT_Tunnel, racecar]
pose: 
  - 
    position: 
      x: 0.0
      y: 0.0
      z: 0.0
    orientation: 
      x: 0.0
      y: 0.0
      z: 0.0
      w: 1.0
  - 
    position: 
      x: 6.0
      y: 20.0
      z: 0.0
    orientation: 
      x: 0.0
      y: 0.0
      z: 0.0
      w: 1.0
  - 
    position: 
      x: -7.33755877748e-05
      y: -1.64232584857e-07
      z: -6.63873205464e-07
    orientation: 
      x: -5.30296697411e-10
      y: 9.06096680046e-07
      z: -1.40871663465e-06
      w: 0.999999999999
twist: 
  - 
    linear: 
      x: 0.0
      y: 0.0
      z: 0.0
    angular: 
      x: 0.0
      y: 0.0
      z: 0.0
  - 
    linear: 
      x: 0.0
      y: 0.0
      z: 0.0
    angular: 
      x: 0.0
      y: 0.0
      z: 0.0
  - 
    linear: 
      x: 4.2406219093e-08
      y: -3.10169850781e-07
      z: 6.58109507838e-06
    angular: 
      x: 7.57345379386e-07
      y: -6.28279918166e-06
      z: 1.86334165568e-07
---
name: [ground_plane, MIT_Tunnel, racecar]
pose: 
  - 
    position: 
      x: 0.0
      y: 0.0
      z: 0.0
    orientation: 
      x: 0.0
      y: 0.0
      z: 0.0
      w: 1.0
  - 
    position: 
      x: 6.0
      y: 20.0
      z: 0.0
    orientation: 
      x: 0.0
      y: 0.0
      z: 0.0
      w: 1.0
  - 
    position: 
      x: -7.33758675152e-05
      y: -1.64236605608e-07
      z: -6.63873202709e-07
    orientation: 
      x: -5.30292798753e-10
      y: 9.06096614935e-07
      z: -1.40872591142e-06
      w: 0.999999999999
twist: 
  - 
    linear: 
      x: 0.0
      y: 0.0
      z: 0.0
    angular: 
      x: 0.0
      y: 0.0
      z: 0.0
  - 
    linear: 
      x: 0.0
      y: 0.0
      z: 0.0
    angular: 
      x: 0.0
      y: 0.0
      z: 0.0
  - 
    linear: 
      x: 4.24066056121e-08
      y: -3.10169851506e-07
      z: 6.58109506073e-06
    angular: 
      x: 7.57345445627e-07
      y: -6.28280009414e-06
      z: 1.86334160328e-07
---
name: [ground_plane, MIT_Tunnel, racecar]
pose: 
  - 
    position: 
      x: 0.0
      y: 0.0
      z: 0.0
    orientation: 
      x: 0.0
      y: 0.0
      z: 0.0
      w: 1.0
  - 
    position: 
      x: 6.0
      y: 20.0
      z: 0.0
    orientation: 
      x: 0.0
      y: 0.0
      z: 0.0
      w: 1.0
  - 
    position: 
      x: -7.33761472553e-05
      y: -1.64240626364e-07
      z: -6.63873199962e-07
    orientation: 
      x: -5.30288907763e-10
      y: 9.06096549815e-07
      z: -1.40873518816e-06
      w: 0.999999999999
twist: 
  - 
    linear: 
      x: 0.0
      y: 0.0
      z: 0.0
    angular: 
      x: 0.0
      y: 0.0
      z: 0.0
  - 
    linear: 
      x: 0.0
      y: 0.0
      z: 0.0
    angular: 
      x: 0.0
      y: 0.0
      z: 0.0
  - 
    linear: 
      x: 4.24069961047e-08
      y: -3.10169854637e-07
      z: 6.58109504068e-06
    angular: 
      x: 7.57345473176e-07
      y: -6.282801057e-06
      z: 1.86334221944e-07
---
name: [ground_plane, MIT_Tunnel, racecar]
pose: 
  - 
    position: 
      x: 0.0
      y: 0.0
      z: 0.0
    orientation: 
      x: 0.0
      y: 0.0
      z: 0.0
      w: 1.0
  - 
    position: 
      x: 6.0
      y: 20.0
      z: 0.0
    orientation: 
      x: 0.0
      y: 0.0
      z: 0.0
      w: 1.0
  - 
    position: 
      x: -7.3376426995e-05
      y: -1.64244647116e-07
      z: -6.63873197207e-07
    orientation: 
      x: -5.30285014403e-10
      y: 9.06096484716e-07
      z: -1.4087444649e-06
      w: 0.999999999999
twist: 
  - 
    linear: 
      x: 0.0
      y: 0.0
      z: 0.0
    angular: 
      x: 0.0
      y: 0.0
      z: 0.0
  - 
    linear: 
      x: 0.0
      y: 0.0
      z: 0.0
    angular: 
      x: 0.0
      y: 0.0
      z: 0.0
  - 
    linear: 
      x: 4.24073848991e-08
      y: -3.10169849126e-07
      z: 6.58109502686e-06
    angular: 
      x: 7.57345520785e-07
      y: -6.28280196002e-06
      z: 1.86334236264e-07
---
name: [ground_plane, MIT_Tunnel, racecar]
pose: 
  - 
    position: 
      x: 0.0
      y: 0.0
      z: 0.0
    orientation: 
      x: 0.0
      y: 0.0
      z: 0.0
      w: 1.0
  - 
    position: 
      x: 6.0
      y: 20.0
      z: 0.0
    orientation: 
      x: 0.0
      y: 0.0
      z: 0.0
      w: 1.0
  - 
    position: 
      x: -7.33767067344e-05
      y: -1.64248667871e-07
      z: -6.63873194445e-07
    orientation: 
      x: -5.30281124499e-10
      y: 9.060964196e-07
      z: -1.40875374165e-06
      w: 0.999999999999
twist: 
  - 
    linear: 
      x: 0.0
      y: 0.0
      z: 0.0
    angular: 
      x: 0.0
      y: 0.0
      z: 0.0
  - 
    linear: 
      x: 0.0
      y: 0.0
      z: 0.0
    angular: 
      x: 0.0
      y: 0.0
      z: 0.0
  - 
    linear: 
      x: 4.24077763446e-08
      y: -3.10169850441e-07
      z: 6.58109500644e-06
    angular: 
      x: 7.57345556758e-07
      y: -6.28280294055e-06
      z: 1.86334254324e-07
---
name: [ground_plane, MIT_Tunnel, racecar]
pose: 
  - 
    position: 
      x: 0.0
      y: 0.0
      z: 0.0
    orientation: 
      x: 0.0
      y: 0.0
      z: 0.0
      w: 1.0
  - 
    position: 
      x: 6.0
      y: 20.0
      z: 0.0
    orientation: 
      x: 0.0
      y: 0.0
      z: 0.0
      w: 1.0
  - 
    position: 
      x: -7.33769864734e-05
      y: -1.64252688625e-07
      z: -6.63873191697e-07
    orientation: 
      x: -5.30277240141e-10
      y: 9.06096354485e-07
      z: -1.40876301842e-06
      w: 0.999999999999
twist: 
  - 
    linear: 
      x: 0.0
      y: 0.0
      z: 0.0
    angular: 
      x: 0.0
      y: 0.0
      z: 0.0
  - 
    linear: 
      x: 0.0
      y: 0.0
      z: 0.0
    angular: 
      x: 0.0
      y: 0.0
      z: 0.0
  - 
    linear: 
      x: 4.24081656324e-08
      y: -3.10169848032e-07
      z: 6.58109498538e-06
    angular: 
      x: 7.57345588572e-07
      y: -6.28280388478e-06
      z: 1.86334227903e-07
---
name: [ground_plane, MIT_Tunnel, racecar]
pose: 
  - 
    position: 
      x: 0.0
      y: 0.0
      z: 0.0
    orientation: 
      x: 0.0
      y: 0.0
      z: 0.0
      w: 1.0
  - 
    position: 
      x: 6.0
      y: 20.0
      z: 0.0
    orientation: 
      x: 0.0
      y: 0.0
      z: 0.0
      w: 1.0
  - 
    position: 
      x: -7.33772662121e-05
      y: -1.64256709376e-07
      z: -6.63873188936e-07
    orientation: 
      x: -5.30273344803e-10
      y: 9.06096289377e-07
      z: -1.40877229518e-06
      w: 0.999999999999
twist: 
  - 
    linear: 
      x: 0.0
      y: 0.0
      z: 0.0
    angular: 
      x: 0.0
      y: 0.0
      z: 0.0
  - 
    linear: 
      x: 0.0
      y: 0.0
      z: 0.0
    angular: 
      x: 0.0
      y: 0.0
      z: 0.0
  - 
    linear: 
      x: 4.24085560437e-08
      y: -3.10169843122e-07
      z: 6.58109497057e-06
    angular: 
      x: 7.57345653441e-07
      y: -6.28280481621e-06
      z: 1.8633426799e-07
---
name: [ground_plane, MIT_Tunnel, racecar]
pose: 
  - 
    position: 
      x: 0.0
      y: 0.0
      z: 0.0
    orientation: 
      x: 0.0
      y: 0.0
      z: 0.0
      w: 1.0
  - 
    position: 
      x: 6.0
      y: 20.0
      z: 0.0
    orientation: 
      x: 0.0
      y: 0.0
      z: 0.0
      w: 1.0
  - 
    position: 
      x: -7.33775459504e-05
      y: -1.64260730125e-07
      z: -6.63873186181e-07
    orientation: 
      x: -5.30269463789e-10
      y: 9.06096224294e-07
      z: -1.40878157194e-06
      w: 0.999999999999
twist: 
  - 
    linear: 
      x: 0.0
      y: 0.0
      z: 0.0
    angular: 
      x: 0.0
      y: 0.0
      z: 0.0
  - 
    linear: 
      x: 0.0
      y: 0.0
      z: 0.0
    angular: 
      x: 0.0
      y: 0.0
      z: 0.0
  - 
    linear: 
      x: 4.2408942651e-08
      y: -3.1016984039e-07
      z: 6.58109495228e-06
    angular: 
      x: 7.57345667733e-07
      y: -6.2828057117e-06
      z: 1.86334279257e-07
---
name: [ground_plane, MIT_Tunnel, racecar]
pose: 
  - 
    position: 
      x: 0.0
      y: 0.0
      z: 0.0
    orientation: 
      x: 0.0
      y: 0.0
      z: 0.0
      w: 1.0
  - 
    position: 
      x: 6.0
      y: 20.0
      z: 0.0
    orientation: 
      x: 0.0
      y: 0.0
      z: 0.0
      w: 1.0
  - 
    position: 
      x: -7.33778256884e-05
      y: -1.64264750875e-07
      z: -6.63873183426e-07
    orientation: 
      x: -5.30265569254e-10
      y: 9.06096159192e-07
      z: -1.4087908487e-06
      w: 0.999999999999
twist: 
  - 
    linear: 
      x: 0.0
      y: 0.0
      z: 0.0
    angular: 
      x: 0.0
      y: 0.0
      z: 0.0
  - 
    linear: 
      x: 0.0
      y: 0.0
      z: 0.0
    angular: 
      x: 0.0
      y: 0.0
      z: 0.0
  - 
    linear: 
      x: 4.24093317559e-08
      y: -3.10169839232e-07
      z: 6.5810949329e-06
    angular: 
      x: 7.57345737643e-07
      y: -6.28280669581e-06
      z: 1.86334314781e-07
---
name: [ground_plane, MIT_Tunnel, racecar]
pose: 
  - 
    position: 
      x: 0.0
      y: 0.0
      z: 0.0
    orientation: 
      x: 0.0
      y: 0.0
      z: 0.0
      w: 1.0
  - 
    position: 
      x: 6.0
      y: 20.0
      z: 0.0
    orientation: 
      x: 0.0
      y: 0.0
      z: 0.0
      w: 1.0
  - 
    position: 
      x: -7.33781054262e-05
      y: -1.64268771631e-07
      z: -6.63873180665e-07
    orientation: 
      x: -5.30261685265e-10
      y: 9.06096094097e-07
      z: -1.40880012545e-06
      w: 0.999999999999
twist: 
  - 
    linear: 
      x: 0.0
      y: 0.0
      z: 0.0
    angular: 
      x: 0.0
      y: 0.0
      z: 0.0
  - 
    linear: 
      x: 0.0
      y: 0.0
      z: 0.0
    angular: 
      x: 0.0
      y: 0.0
      z: 0.0
  - 
    linear: 
      x: 4.24097222818e-08
      y: -3.10169843732e-07
      z: 6.58109491582e-06
    angular: 
      x: 7.57345759342e-07
      y: -6.28280762814e-06
      z: 1.86334337112e-07
---
name: [ground_plane, MIT_Tunnel, racecar]
pose: 
  - 
    position: 
      x: 0.0
      y: 0.0
      z: 0.0
    orientation: 
      x: 0.0
      y: 0.0
      z: 0.0
      w: 1.0
  - 
    position: 
      x: 6.0
      y: 20.0
      z: 0.0
    orientation: 
      x: 0.0
      y: 0.0
      z: 0.0
      w: 1.0
  - 
    position: 
      x: -7.33783851635e-05
      y: -1.64272792384e-07
      z: -6.6387317791e-07
    orientation: 
      x: -5.30257793543e-10
      y: 9.06096028999e-07
      z: -1.40880940221e-06
      w: 0.999999999999
twist: 
  - 
    linear: 
      x: 0.0
      y: 0.0
      z: 0.0
    angular: 
      x: 0.0
      y: 0.0
      z: 0.0
  - 
    linear: 
      x: 0.0
      y: 0.0
      z: 0.0
    angular: 
      x: 0.0
      y: 0.0
      z: 0.0
  - 
    linear: 
      x: 4.2410113802e-08
      y: -3.10169840091e-07
      z: 6.58109489781e-06
    angular: 
      x: 7.5734581777e-07
      y: -6.28280857865e-06
      z: 1.86334357635e-07
---
name: [ground_plane, MIT_Tunnel, racecar]
pose: 
  - 
    position: 
      x: 0.0
      y: 0.0
      z: 0.0
    orientation: 
      x: 0.0
      y: 0.0
      z: 0.0
      w: 1.0
  - 
    position: 
      x: 6.0
      y: 20.0
      z: 0.0
    orientation: 
      x: 0.0
      y: 0.0
      z: 0.0
      w: 1.0
  - 
    position: 
      x: -7.33786649005e-05
      y: -1.64276813134e-07
      z: -6.63873175155e-07
    orientation: 
      x: -5.30253901953e-10
      y: 9.06095963932e-07
      z: -1.40881867897e-06
      w: 0.999999999999
twist: 
  - 
    linear: 
      x: 0.0
      y: 0.0
      z: 0.0
    angular: 
      x: 0.0
      y: 0.0
      z: 0.0
  - 
    linear: 
      x: 0.0
      y: 0.0
      z: 0.0
    angular: 
      x: 0.0
      y: 0.0
      z: 0.0
  - 
    linear: 
      x: 4.24105007115e-08
      y: -3.10169834677e-07
      z: 6.58109487771e-06
    angular: 
      x: 7.57345860399e-07
      y: -6.28280946273e-06
      z: 1.86334363692e-07
---
name: [ground_plane, MIT_Tunnel, racecar]
pose: 
  - 
    position: 
      x: 0.0
      y: 0.0
      z: 0.0
    orientation: 
      x: 0.0
      y: 0.0
      z: 0.0
      w: 1.0
  - 
    position: 
      x: 6.0
      y: 20.0
      z: 0.0
    orientation: 
      x: 0.0
      y: 0.0
      z: 0.0
      w: 1.0
  - 
    position: 
      x: -7.33789446371e-05
      y: -1.64280833881e-07
      z: -6.63873172407e-07
    orientation: 
      x: -5.30250015728e-10
      y: 9.06095898847e-07
      z: -1.40882795574e-06
      w: 0.999999999999
twist: 
  - 
    linear: 
      x: 0.0
      y: 0.0
      z: 0.0
    angular: 
      x: 0.0
      y: 0.0
      z: 0.0
  - 
    linear: 
      x: 0.0
      y: 0.0
      z: 0.0
    angular: 
      x: 0.0
      y: 0.0
      z: 0.0
  - 
    linear: 
      x: 4.24108935874e-08
      y: -3.10169831029e-07
      z: 6.58109486256e-06
    angular: 
      x: 7.57345892546e-07
      y: -6.28281044318e-06
      z: 1.86334350839e-07
---
name: [ground_plane, MIT_Tunnel, racecar]
pose: 
  - 
    position: 
      x: 0.0
      y: 0.0
      z: 0.0
    orientation: 
      x: 0.0
      y: 0.0
      z: 0.0
      w: 1.0
  - 
    position: 
      x: 6.0
      y: 20.0
      z: 0.0
    orientation: 
      x: 0.0
      y: 0.0
      z: 0.0
      w: 1.0
  - 
    position: 
      x: -7.33792243734e-05
      y: -1.64284854628e-07
      z: -6.63873169653e-07
    orientation: 
      x: -5.30246131431e-10
      y: 9.06095833761e-07
      z: -1.40883723251e-06
      w: 0.999999999999
twist: 
  - 
    linear: 
      x: 0.0
      y: 0.0
      z: 0.0
    angular: 
      x: 0.0
      y: 0.0
      z: 0.0
  - 
    linear: 
      x: 0.0
      y: 0.0
      z: 0.0
    angular: 
      x: 0.0
      y: 0.0
      z: 0.0
  - 
    linear: 
      x: 4.24112862513e-08
      y: -3.1016982862e-07
      z: 6.58109484239e-06
    angular: 
      x: 7.57345931636e-07
      y: -6.28281139169e-06
      z: 1.86334393388e-07
---
name: [ground_plane, MIT_Tunnel, racecar]
pose: 
  - 
    position: 
      x: 0.0
      y: 0.0
      z: 0.0
    orientation: 
      x: 0.0
      y: 0.0
      z: 0.0
      w: 1.0
  - 
    position: 
      x: 6.0
      y: 20.0
      z: 0.0
    orientation: 
      x: 0.0
      y: 0.0
      z: 0.0
      w: 1.0
  - 
    position: 
      x: -7.33795041094e-05
      y: -1.64288875376e-07
      z: -6.63873166898e-07
    orientation: 
      x: -5.30242239957e-10
      y: 9.06095768676e-07
      z: -1.40884650928e-06
      w: 0.999999999999
twist: 
  - 
    linear: 
      x: 0.0
      y: 0.0
      z: 0.0
    angular: 
      x: 0.0
      y: 0.0
      z: 0.0
  - 
    linear: 
      x: 0.0
      y: 0.0
      z: 0.0
    angular: 
      x: 0.0
      y: 0.0
      z: 0.0
  - 
    linear: 
      x: 4.24116762651e-08
      y: -3.10169829111e-07
      z: 6.5810948253e-06
    angular: 
      x: 7.57345988793e-07
      y: -6.28281233517e-06
      z: 1.86334401242e-07
---
name: [ground_plane, MIT_Tunnel, racecar]
pose: 
  - 
    position: 
      x: 0.0
      y: 0.0
      z: 0.0
    orientation: 
      x: 0.0
      y: 0.0
      z: 0.0
      w: 1.0
  - 
    position: 
      x: 6.0
      y: 20.0
      z: 0.0
    orientation: 
      x: 0.0
      y: 0.0
      z: 0.0
      w: 1.0
  - 
    position: 
      x: -7.3379783845e-05
      y: -1.64292896128e-07
      z: -6.63873164136e-07
    orientation: 
      x: -5.30238352006e-10
      y: 9.06095703607e-07
      z: -1.40885578603e-06
      w: 0.999999999999
twist: 
  - 
    linear: 
      x: 0.0
      y: 0.0
      z: 0.0
    angular: 
      x: 0.0
      y: 0.0
      z: 0.0
  - 
    linear: 
      x: 0.0
      y: 0.0
      z: 0.0
    angular: 
      x: 0.0
      y: 0.0
      z: 0.0
  - 
    linear: 
      x: 4.24120667924e-08
      y: -3.10169831451e-07
      z: 6.58109480466e-06
    angular: 
      x: 7.57346024625e-07
      y: -6.28281324809e-06
      z: 1.86334465697e-07
---
name: [ground_plane, MIT_Tunnel, racecar]
pose: 
  - 
    position: 
      x: 0.0
      y: 0.0
      z: 0.0
    orientation: 
      x: 0.0
      y: 0.0
      z: 0.0
      w: 1.0
  - 
    position: 
      x: 6.0
      y: 20.0
      z: 0.0
    orientation: 
      x: 0.0
      y: 0.0
      z: 0.0
      w: 1.0
  - 
    position: 
      x: -7.33800635802e-05
      y: -1.64296916883e-07
      z: -6.63873161388e-07
    orientation: 
      x: -5.30234473989e-10
      y: 9.0609563853e-07
      z: -1.40886506281e-06
      w: 0.999999999999
twist: 
  - 
    linear: 
      x: 0.0
      y: 0.0
      z: 0.0
    angular: 
      x: 0.0
      y: 0.0
      z: 0.0
  - 
    linear: 
      x: 0.0
      y: 0.0
      z: 0.0
    angular: 
      x: 0.0
      y: 0.0
      z: 0.0
  - 
    linear: 
      x: 4.24124548648e-08
      y: -3.10169832249e-07
      z: 6.58109478688e-06
    angular: 
      x: 7.57346047552e-07
      y: -6.28281420964e-06
      z: 1.86334442617e-07
---
name: [ground_plane, MIT_Tunnel, racecar]
pose: 
  - 
    position: 
      x: 0.0
      y: 0.0
      z: 0.0
    orientation: 
      x: 0.0
      y: 0.0
      z: 0.0
      w: 1.0
  - 
    position: 
      x: 6.0
      y: 20.0
      z: 0.0
    orientation: 
      x: 0.0
      y: 0.0
      z: 0.0
      w: 1.0
  - 
    position: 
      x: -7.33803433152e-05
      y: -1.6430093764e-07
      z: -6.63873158641e-07
    orientation: 
      x: -5.30230578637e-10
      y: 9.06095573461e-07
      z: -1.40887433955e-06
      w: 0.999999999999
twist: 
  - 
    linear: 
      x: 0.0
      y: 0.0
      z: 0.0
    angular: 
      x: 0.0
      y: 0.0
      z: 0.0
  - 
    linear: 
      x: 0.0
      y: 0.0
      z: 0.0
    angular: 
      x: 0.0
      y: 0.0
      z: 0.0
  - 
    linear: 
      x: 4.2412841734e-08
      y: -3.10169833276e-07
      z: 6.58109476966e-06
    angular: 
      x: 7.57346125116e-07
      y: -6.28281513858e-06
      z: 1.86334515682e-07
---
name: [ground_plane, MIT_Tunnel, racecar]
pose: 
  - 
    position: 
      x: 0.0
      y: 0.0
      z: 0.0
    orientation: 
      x: 0.0
      y: 0.0
      z: 0.0
      w: 1.0
  - 
    position: 
      x: 6.0
      y: 20.0
      z: 0.0
    orientation: 
      x: 0.0
      y: 0.0
      z: 0.0
      w: 1.0
  - 
    position: 
      x: -7.33806230497e-05
      y: -1.64304958395e-07
      z: -6.63873155886e-07
    orientation: 
      x: -5.302266923e-10
      y: 9.06095508392e-07
      z: -1.40888361632e-06
      w: 0.999999999999
twist: 
  - 
    linear: 
      x: 0.0
      y: 0.0
      z: 0.0
    angular: 
      x: 0.0
      y: 0.0
      z: 0.0
  - 
    linear: 
      x: 0.0
      y: 0.0
      z: 0.0
    angular: 
      x: 0.0
      y: 0.0
      z: 0.0
  - 
    linear: 
      x: 4.24132343362e-08
      y: -3.10169829402e-07
      z: 6.58109475033e-06
    angular: 
      x: 7.57346149971e-07
      y: -6.28281608573e-06
      z: 1.86334483801e-07
---
name: [ground_plane, MIT_Tunnel, racecar]
pose: 
  - 
    position: 
      x: 0.0
      y: 0.0
      z: 0.0
    orientation: 
      x: 0.0
      y: 0.0
      z: 0.0
      w: 1.0
  - 
    position: 
      x: 6.0
      y: 20.0
      z: 0.0
    orientation: 
      x: 0.0
      y: 0.0
      z: 0.0
      w: 1.0
  - 
    position: 
      x: -7.3380902784e-05
      y: -1.64308979152e-07
      z: -6.63873153131e-07
    orientation: 
      x: -5.30222817473e-10
      y: 9.06095443345e-07
      z: -1.40889289309e-06
      w: 0.999999999999
twist: 
  - 
    linear: 
      x: 0.0
      y: 0.0
      z: 0.0
    angular: 
      x: 0.0
      y: 0.0
      z: 0.0
  - 
    linear: 
      x: 0.0
      y: 0.0
      z: 0.0
    angular: 
      x: 0.0
      y: 0.0
      z: 0.0
  - 
    linear: 
      x: 4.24136188402e-08
      y: -3.10169830485e-07
      z: 6.58109473685e-06
    angular: 
      x: 7.57346169795e-07
      y: -6.28281698529e-06
      z: 1.86334508377e-07
---
name: [ground_plane, MIT_Tunnel, racecar]
pose: 
  - 
    position: 
      x: 0.0
      y: 0.0
      z: 0.0
    orientation: 
      x: 0.0
      y: 0.0
      z: 0.0
      w: 1.0
  - 
    position: 
      x: 6.0
      y: 20.0
      z: 0.0
    orientation: 
      x: 0.0
      y: 0.0
      z: 0.0
      w: 1.0
  - 
    position: 
      x: -7.33811825179e-05
      y: -1.64312999905e-07
      z: -6.63873150376e-07
    orientation: 
      x: -5.3021893421e-10
      y: 9.0609537828e-07
      z: -1.40890216985e-06
      w: 0.999999999999
twist: 
  - 
    linear: 
      x: 0.0
      y: 0.0
      z: 0.0
    angular: 
      x: 0.0
      y: 0.0
      z: 0.0
  - 
    linear: 
      x: 0.0
      y: 0.0
      z: 0.0
    angular: 
      x: 0.0
      y: 0.0
      z: 0.0
  - 
    linear: 
      x: 4.24140121315e-08
      y: -3.10169824644e-07
      z: 6.58109471505e-06
    angular: 
      x: 7.57346229609e-07
      y: -6.28281796509e-06
      z: 1.86334538459e-07
---
name: [ground_plane, MIT_Tunnel, racecar]
pose: 
  - 
    position: 
      x: 0.0
      y: 0.0
      z: 0.0
    orientation: 
      x: 0.0
      y: 0.0
      z: 0.0
      w: 1.0
  - 
    position: 
      x: 6.0
      y: 20.0
      z: 0.0
    orientation: 
      x: 0.0
      y: 0.0
      z: 0.0
      w: 1.0
  - 
    position: 
      x: -7.33814622515e-05
      y: -1.6431702065e-07
      z: -6.63873147622e-07
    orientation: 
      x: -5.30215045962e-10
      y: 9.06095313226e-07
      z: -1.40891144664e-06
      w: 0.999999999999
twist: 
  - 
    linear: 
      x: 0.0
      y: 0.0
      z: 0.0
    angular: 
      x: 0.0
      y: 0.0
      z: 0.0
  - 
    linear: 
      x: 0.0
      y: 0.0
      z: 0.0
    angular: 
      x: 0.0
      y: 0.0
      z: 0.0
  - 
    linear: 
      x: 4.24144020866e-08
      y: -3.10169814537e-07
      z: 6.58109469726e-06
    angular: 
      x: 7.57346282489e-07
      y: -6.28281888936e-06
      z: 1.86334512828e-07
---
name: [ground_plane, MIT_Tunnel, racecar]
pose: 
  - 
    position: 
      x: 0.0
      y: 0.0
      z: 0.0
    orientation: 
      x: 0.0
      y: 0.0
      z: 0.0
      w: 1.0
  - 
    position: 
      x: 6.0
      y: 20.0
      z: 0.0
    orientation: 
      x: 0.0
      y: 0.0
      z: 0.0
      w: 1.0
  - 
    position: 
      x: -7.33817419847e-05
      y: -1.64321041398e-07
      z: -6.63873144881e-07
    orientation: 
      x: -5.30211151966e-10
      y: 9.0609524816e-07
      z: -1.40892072342e-06
      w: 0.999999999999
twist: 
  - 
    linear: 
      x: 0.0
      y: 0.0
      z: 0.0
    angular: 
      x: 0.0
      y: 0.0
      z: 0.0
  - 
    linear: 
      x: 0.0
      y: 0.0
      z: 0.0
    angular: 
      x: 0.0
      y: 0.0
      z: 0.0
  - 
    linear: 
      x: 4.2414793574e-08
      y: -3.10169816995e-07
      z: 6.58109467766e-06
    angular: 
      x: 7.57346336836e-07
      y: -6.28281985855e-06
      z: 1.86334548348e-07
---
name: [ground_plane, MIT_Tunnel, racecar]
pose: 
  - 
    position: 
      x: 0.0
      y: 0.0
      z: 0.0
    orientation: 
      x: 0.0
      y: 0.0
      z: 0.0
      w: 1.0
  - 
    position: 
      x: 6.0
      y: 20.0
      z: 0.0
    orientation: 
      x: 0.0
      y: 0.0
      z: 0.0
      w: 1.0
  - 
    position: 
      x: -7.33820217176e-05
      y: -1.64325062147e-07
      z: -6.63873142119e-07
    orientation: 
      x: -5.30207273064e-10
      y: 9.06095183115e-07
      z: -1.4089300002e-06
      w: 0.999999999999
twist: 
  - 
    linear: 
      x: 0.0
      y: 0.0
      z: 0.0
    angular: 
      x: 0.0
      y: 0.0
      z: 0.0
  - 
    linear: 
      x: 0.0
      y: 0.0
      z: 0.0
    angular: 
      x: 0.0
      y: 0.0
      z: 0.0
  - 
    linear: 
      x: 4.24151808637e-08
      y: -3.10169816542e-07
      z: 6.5810946622e-06
    angular: 
      x: 7.57346349488e-07
      y: -6.28282076327e-06
      z: 1.86334564942e-07
---
name: [ground_plane, MIT_Tunnel, racecar]
pose: 
  - 
    position: 
      x: 0.0
      y: 0.0
      z: 0.0
    orientation: 
      x: 0.0
      y: 0.0
      z: 0.0
      w: 1.0
  - 
    position: 
      x: 6.0
      y: 20.0
      z: 0.0
    orientation: 
      x: 0.0
      y: 0.0
      z: 0.0
      w: 1.0
  - 
    position: 
      x: -7.33823014501e-05
      y: -1.64329082899e-07
      z: -6.63873139371e-07
    orientation: 
      x: -5.30203388943e-10
      y: 9.06095118066e-07
      z: -1.40893927698e-06
      w: 0.999999999999
twist: 
  - 
    linear: 
      x: 0.0
      y: 0.0
      z: 0.0
    angular: 
      x: 0.0
      y: 0.0
      z: 0.0
  - 
    linear: 
      x: 0.0
      y: 0.0
      z: 0.0
    angular: 
      x: 0.0
      y: 0.0
      z: 0.0
  - 
    linear: 
      x: 4.24155713038e-08
      y: -3.10169817485e-07
      z: 6.58109464255e-06
    angular: 
      x: 7.57346402812e-07
      y: -6.28282171372e-06
      z: 1.86334576501e-07
---
name: [ground_plane, MIT_Tunnel, racecar]
pose: 
  - 
    position: 
      x: 0.0
      y: 0.0
      z: 0.0
    orientation: 
      x: 0.0
      y: 0.0
      z: 0.0
      w: 1.0
  - 
    position: 
      x: 6.0
      y: 20.0
      z: 0.0
    orientation: 
      x: 0.0
      y: 0.0
      z: 0.0
      w: 1.0
  - 
    position: 
      x: -7.33825811823e-05
      y: -1.64333103653e-07
      z: -6.6387313661e-07
    orientation: 
      x: -5.3019949702e-10
      y: 9.06095053017e-07
      z: -1.40894855375e-06
      w: 0.999999999999
twist: 
  - 
    linear: 
      x: 0.0
      y: 0.0
      z: 0.0
    angular: 
      x: 0.0
      y: 0.0
      z: 0.0
  - 
    linear: 
      x: 0.0
      y: 0.0
      z: 0.0
    angular: 
      x: 0.0
      y: 0.0
      z: 0.0
  - 
    linear: 
      x: 4.24159641047e-08
      y: -3.10169818434e-07
      z: 6.58109462456e-06
    angular: 
      x: 7.57346461195e-07
      y: -6.28282266033e-06
      z: 1.86334629917e-07
---
name: [ground_plane, MIT_Tunnel, racecar]
pose: 
  - 
    position: 
      x: 0.0
      y: 0.0
      z: 0.0
    orientation: 
      x: 0.0
      y: 0.0
      z: 0.0
      w: 1.0
  - 
    position: 
      x: 6.0
      y: 20.0
      z: 0.0
    orientation: 
      x: 0.0
      y: 0.0
      z: 0.0
      w: 1.0
  - 
    position: 
      x: -7.33828609142e-05
      y: -1.64337124405e-07
      z: -6.63873133862e-07
    orientation: 
      x: -5.30195604622e-10
      y: 9.06094987974e-07
      z: -1.40895783053e-06
      w: 0.999999999999
twist: 
  - 
    linear: 
      x: 0.0
      y: 0.0
      z: 0.0
    angular: 
      x: 0.0
      y: 0.0
      z: 0.0
  - 
    linear: 
      x: 0.0
      y: 0.0
      z: 0.0
    angular: 
      x: 0.0
      y: 0.0
      z: 0.0
  - 
    linear: 
      x: 4.24163542374e-08
      y: -3.10169814216e-07
      z: 6.58109460545e-06
    angular: 
      x: 7.57346504993e-07
      y: -6.28282359198e-06
      z: 1.86334631355e-07
---
name: [ground_plane, MIT_Tunnel, racecar]
pose: 
  - 
    position: 
      x: 0.0
      y: 0.0
      z: 0.0
    orientation: 
      x: 0.0
      y: 0.0
      z: 0.0
      w: 1.0
  - 
    position: 
      x: 6.0
      y: 20.0
      z: 0.0
    orientation: 
      x: 0.0
      y: 0.0
      z: 0.0
      w: 1.0
  - 
    position: 
      x: -7.33831406457e-05
      y: -1.6434114515e-07
      z: -6.63873131114e-07
    orientation: 
      x: -5.30191726723e-10
      y: 9.06094922946e-07
      z: -1.40896710731e-06
      w: 0.999999999999
twist: 
  - 
    linear: 
      x: 0.0
      y: 0.0
      z: 0.0
    angular: 
      x: 0.0
      y: 0.0
      z: 0.0
  - 
    linear: 
      x: 0.0
      y: 0.0
      z: 0.0
    angular: 
      x: 0.0
      y: 0.0
      z: 0.0
  - 
    linear: 
      x: 4.24167433113e-08
      y: -3.10169806707e-07
      z: 6.58109459051e-06
    angular: 
      x: 7.5734651894e-07
      y: -6.28282450815e-06
      z: 1.86334636111e-07
---
name: [ground_plane, MIT_Tunnel, racecar]
pose: 
  - 
    position: 
      x: 0.0
      y: 0.0
      z: 0.0
    orientation: 
      x: 0.0
      y: 0.0
      z: 0.0
      w: 1.0
  - 
    position: 
      x: 6.0
      y: 20.0
      z: 0.0
    orientation: 
      x: 0.0
      y: 0.0
      z: 0.0
      w: 1.0
  - 
    position: 
      x: -7.33834203768e-05
      y: -1.64345165892e-07
      z: -6.63873128359e-07
    orientation: 
      x: -5.30187840176e-10
      y: 9.06094857906e-07
      z: -1.40897638411e-06
      w: 0.999999999999
twist: 
  - 
    linear: 
      x: 0.0
      y: 0.0
      z: 0.0
    angular: 
      x: 0.0
      y: 0.0
      z: 0.0
  - 
    linear: 
      x: 0.0
      y: 0.0
      z: 0.0
    angular: 
      x: 0.0
      y: 0.0
      z: 0.0
  - 
    linear: 
      x: 4.24171325737e-08
      y: -3.10169801708e-07
      z: 6.58109457018e-06
    angular: 
      x: 7.57346579103e-07
      y: -6.28282547641e-06
      z: 1.86334642707e-07
---
name: [ground_plane, MIT_Tunnel, racecar]
pose: 
  - 
    position: 
      x: 0.0
      y: 0.0
      z: 0.0
    orientation: 
      x: 0.0
      y: 0.0
      z: 0.0
      w: 1.0
  - 
    position: 
      x: 6.0
      y: 20.0
      z: 0.0
    orientation: 
      x: 0.0
      y: 0.0
      z: 0.0
      w: 1.0
  - 
    position: 
      x: -7.33837001077e-05
      y: -1.64349186634e-07
      z: -6.63873125611e-07
    orientation: 
      x: -5.30183955093e-10
      y: 9.0609479287e-07
      z: -1.40898566089e-06
      w: 0.999999999999
twist: 
  - 
    linear: 
      x: 0.0
      y: 0.0
      z: 0.0
    angular: 
      x: 0.0
      y: 0.0
      z: 0.0
  - 
    linear: 
      x: 0.0
      y: 0.0
      z: 0.0
    angular: 
      x: 0.0
      y: 0.0
      z: 0.0
  - 
    linear: 
      x: 4.24175234201e-08
      y: -3.10169800237e-07
      z: 6.581094553e-06
    angular: 
      x: 7.57346619114e-07
      y: -6.28282641193e-06
      z: 1.86334668879e-07
---
name: [ground_plane, MIT_Tunnel, racecar]
pose: 
  - 
    position: 
      x: 0.0
      y: 0.0
      z: 0.0
    orientation: 
      x: 0.0
      y: 0.0
      z: 0.0
      w: 1.0
  - 
    position: 
      x: 6.0
      y: 20.0
      z: 0.0
    orientation: 
      x: 0.0
      y: 0.0
      z: 0.0
      w: 1.0
  - 
    position: 
      x: -7.33839798382e-05
      y: -1.64353207375e-07
      z: -6.63873122857e-07
    orientation: 
      x: -5.30180062453e-10
      y: 9.06094727837e-07
      z: -1.4089949377e-06
      w: 0.999999999999
twist: 
  - 
    linear: 
      x: 0.0
      y: 0.0
      z: 0.0
    angular: 
      x: 0.0
      y: 0.0
      z: 0.0
  - 
    linear: 
      x: 0.0
      y: 0.0
      z: 0.0
    angular: 
      x: 0.0
      y: 0.0
      z: 0.0
  - 
    linear: 
      x: 4.2417910638e-08
      y: -3.10169797736e-07
      z: 6.58109453711e-06
    angular: 
      x: 7.57346677036e-07
      y: -6.28282735258e-06
      z: 1.86334661867e-07
---
name: [ground_plane, MIT_Tunnel, racecar]
pose: 
  - 
    position: 
      x: 0.0
      y: 0.0
      z: 0.0
    orientation: 
      x: 0.0
      y: 0.0
      z: 0.0
      w: 1.0
  - 
    position: 
      x: 6.0
      y: 20.0
      z: 0.0
    orientation: 
      x: 0.0
      y: 0.0
      z: 0.0
      w: 1.0
  - 
    position: 
      x: -7.33842595683e-05
      y: -1.64357228125e-07
      z: -6.63873120102e-07
    orientation: 
      x: -5.3017617571e-10
      y: 9.06094662817e-07
      z: -1.40900421448e-06
      w: 0.999999999999
twist: 
  - 
    linear: 
      x: 0.0
      y: 0.0
      z: 0.0
    angular: 
      x: 0.0
      y: 0.0
      z: 0.0
  - 
    linear: 
      x: 0.0
      y: 0.0
      z: 0.0
    angular: 
      x: 0.0
      y: 0.0
      z: 0.0
  - 
    linear: 
      x: 4.24183002853e-08
      y: -3.10169804333e-07
      z: 6.58109451578e-06
    angular: 
      x: 7.57346708003e-07
      y: -6.28282826939e-06
      z: 1.86334720391e-07
---
name: [ground_plane, MIT_Tunnel, racecar]
pose: 
  - 
    position: 
      x: 0.0
      y: 0.0
      z: 0.0
    orientation: 
      x: 0.0
      y: 0.0
      z: 0.0
      w: 1.0
  - 
    position: 
      x: 6.0
      y: 20.0
      z: 0.0
    orientation: 
      x: 0.0
      y: 0.0
      z: 0.0
      w: 1.0
  - 
    position: 
      x: -7.33845392981e-05
      y: -1.64361248873e-07
      z: -6.63873117361e-07
    orientation: 
      x: -5.30172289043e-10
      y: 9.06094597793e-07
      z: -1.40901349127e-06
      w: 0.999999999999
twist: 
  - 
    linear: 
      x: 0.0
      y: 0.0
      z: 0.0
    angular: 
      x: 0.0
      y: 0.0
      z: 0.0
  - 
    linear: 
      x: 0.0
      y: 0.0
      z: 0.0
    angular: 
      x: 0.0
      y: 0.0
      z: 0.0
  - 
    linear: 
      x: 4.24186907007e-08
      y: -3.10169802422e-07
      z: 6.58109449461e-06
    angular: 
      x: 7.57346750716e-07
      y: -6.28282922236e-06
      z: 1.86334717551e-07
---
name: [ground_plane, MIT_Tunnel, racecar]
pose: 
  - 
    position: 
      x: 0.0
      y: 0.0
      z: 0.0
    orientation: 
      x: 0.0
      y: 0.0
      z: 0.0
      w: 1.0
  - 
    position: 
      x: 6.0
      y: 20.0
      z: 0.0
    orientation: 
      x: 0.0
      y: 0.0
      z: 0.0
      w: 1.0
  - 
    position: 
      x: -7.33848190276e-05
      y: -1.64365269619e-07
      z: -6.63873114606e-07
    orientation: 
      x: -5.30168410607e-10
      y: 9.06094532771e-07
      z: -1.40902276806e-06
      w: 0.999999999999
twist: 
  - 
    linear: 
      x: 0.0
      y: 0.0
      z: 0.0
    angular: 
      x: 0.0
      y: 0.0
      z: 0.0
  - 
    linear: 
      x: 0.0
      y: 0.0
      z: 0.0
    angular: 
      x: 0.0
      y: 0.0
      z: 0.0
  - 
    linear: 
      x: 4.24190817025e-08
      y: -3.1016979824e-07
      z: 6.58109448212e-06
    angular: 
      x: 7.5734677713e-07
      y: -6.28283016426e-06
      z: 1.86334750663e-07
---
name: [ground_plane, MIT_Tunnel, racecar]
pose: 
  - 
    position: 
      x: 0.0
      y: 0.0
      z: 0.0
    orientation: 
      x: 0.0
      y: 0.0
      z: 0.0
      w: 1.0
  - 
    position: 
      x: 6.0
      y: 20.0
      z: 0.0
    orientation: 
      x: 0.0
      y: 0.0
      z: 0.0
      w: 1.0
  - 
    position: 
      x: -7.33850987567e-05
      y: -1.64369290364e-07
      z: -6.63873111852e-07
    orientation: 
      x: -5.30164515942e-10
      y: 9.0609446775e-07
      z: -1.40903204485e-06
      w: 0.999999999999
twist: 
  - 
    linear: 
      x: 0.0
      y: 0.0
      z: 0.0
    angular: 
      x: 0.0
      y: 0.0
      z: 0.0
  - 
    linear: 
      x: 0.0
      y: 0.0
      z: 0.0
    angular: 
      x: 0.0
      y: 0.0
      z: 0.0
  - 
    linear: 
      x: 4.24194710765e-08
      y: -3.10169795322e-07
      z: 6.58109446412e-06
    angular: 
      x: 7.57346852431e-07
      y: -6.2828311066e-06
      z: 1.86334774741e-07
---
name: [ground_plane, MIT_Tunnel, racecar]
pose: 
  - 
    position: 
      x: 0.0
      y: 0.0
      z: 0.0
    orientation: 
      x: 0.0
      y: 0.0
      z: 0.0
      w: 1.0
  - 
    position: 
      x: 6.0
      y: 20.0
      z: 0.0
    orientation: 
      x: 0.0
      y: 0.0
      z: 0.0
      w: 1.0
  - 
    position: 
      x: -7.33853784855e-05
      y: -1.64373311112e-07
      z: -6.63873109104e-07
    orientation: 
      x: -5.30160641338e-10
      y: 9.06094402745e-07
      z: -1.40904132164e-06
      w: 0.999999999999
twist: 
  - 
    linear: 
      x: 0.0
      y: 0.0
      z: 0.0
    angular: 
      x: 0.0
      y: 0.0
      z: 0.0
  - 
    linear: 
      x: 0.0
      y: 0.0
      z: 0.0
    angular: 
      x: 0.0
      y: 0.0
      z: 0.0
  - 
    linear: 
      x: 4.24198594338e-08
      y: -3.10169797921e-07
      z: 6.58109444441e-06
    angular: 
      x: 7.57346855116e-07
      y: -6.28283201855e-06
      z: 1.8633478133e-07
---
name: [ground_plane, MIT_Tunnel, racecar]
pose: 
  - 
    position: 
      x: 0.0
      y: 0.0
      z: 0.0
    orientation: 
      x: 0.0
      y: 0.0
      z: 0.0
      w: 1.0
  - 
    position: 
      x: 6.0
      y: 20.0
      z: 0.0
    orientation: 
      x: 0.0
      y: 0.0
      z: 0.0
      w: 1.0
  - 
    position: 
      x: -7.33856582139e-05
      y: -1.64377331858e-07
      z: -6.63873106356e-07
    orientation: 
      x: -5.30156741077e-10
      y: 9.06094337738e-07
      z: -1.40905059842e-06
      w: 0.999999999999
twist: 
  - 
    linear: 
      x: 0.0
      y: 0.0
      z: 0.0
    angular: 
      x: 0.0
      y: 0.0
      z: 0.0
  - 
    linear: 
      x: 0.0
      y: 0.0
      z: 0.0
    angular: 
      x: 0.0
      y: 0.0
      z: 0.0
  - 
    linear: 
      x: 4.24202489987e-08
      y: -3.10169793466e-07
      z: 6.58109442546e-06
    angular: 
      x: 7.57346949258e-07
      y: -6.28283296712e-06
      z: 1.86334816991e-07
---
name: [ground_plane, MIT_Tunnel, racecar]
pose: 
  - 
    position: 
      x: 0.0
      y: 0.0
      z: 0.0
    orientation: 
      x: 0.0
      y: 0.0
      z: 0.0
      w: 1.0
  - 
    position: 
      x: 6.0
      y: 20.0
      z: 0.0
    orientation: 
      x: 0.0
      y: 0.0
      z: 0.0
      w: 1.0
  - 
    position: 
      x: -7.3385937942e-05
      y: -1.643813526e-07
      z: -6.63873103608e-07
    orientation: 
      x: -5.30152870251e-10
      y: 9.06094272728e-07
      z: -1.40905987523e-06
      w: 0.999999999999
twist: 
  - 
    linear: 
      x: 0.0
      y: 0.0
      z: 0.0
    angular: 
      x: 0.0
      y: 0.0
      z: 0.0
  - 
    linear: 
      x: 0.0
      y: 0.0
      z: 0.0
    angular: 
      x: 0.0
      y: 0.0
      z: 0.0
  - 
    linear: 
      x: 4.24206403904e-08
      y: -3.10169787813e-07
      z: 6.58109441004e-06
    angular: 
      x: 7.57346933318e-07
      y: -6.28283391683e-06
      z: 1.86334796376e-07
---
name: [ground_plane, MIT_Tunnel, racecar]
pose: 
  - 
    position: 
      x: 0.0
      y: 0.0
      z: 0.0
    orientation: 
      x: 0.0
      y: 0.0
      z: 0.0
      w: 1.0
  - 
    position: 
      x: 6.0
      y: 20.0
      z: 0.0
    orientation: 
      x: 0.0
      y: 0.0
      z: 0.0
      w: 1.0
  - 
    position: 
      x: -7.33862176698e-05
      y: -1.64385373347e-07
      z: -6.6387310086e-07
    orientation: 
      x: -5.30148986348e-10
      y: 9.06094207717e-07
      z: -1.40906915203e-06
      w: 0.999999999999
twist: 
  - 
    linear: 
      x: 0.0
      y: 0.0
      z: 0.0
    angular: 
      x: 0.0
      y: 0.0
      z: 0.0
  - 
    linear: 
      x: 0.0
      y: 0.0
      z: 0.0
    angular: 
      x: 0.0
      y: 0.0
      z: 0.0
  - 
    linear: 
      x: 4.24210316563e-08
      y: -3.10169791512e-07
      z: 6.58109439204e-06
    angular: 
      x: 7.57347002276e-07
      y: -6.282834863e-06
      z: 1.86334818527e-07
---
name: [ground_plane, MIT_Tunnel, racecar]
pose: 
  - 
    position: 
      x: 0.0
      y: 0.0
      z: 0.0
    orientation: 
      x: 0.0
      y: 0.0
      z: 0.0
      w: 1.0
  - 
    position: 
      x: 6.0
      y: 20.0
      z: 0.0
    orientation: 
      x: 0.0
      y: 0.0
      z: 0.0
      w: 1.0
  - 
    position: 
      x: -7.33864973972e-05
      y: -1.64389394092e-07
      z: -6.63873098113e-07
    orientation: 
      x: -5.30145113003e-10
      y: 9.0609414271e-07
      z: -1.40907842882e-06
      w: 0.999999999999
twist: 
  - 
    linear: 
      x: 0.0
      y: 0.0
      z: 0.0
    angular: 
      x: 0.0
      y: 0.0
      z: 0.0
  - 
    linear: 
      x: 0.0
      y: 0.0
      z: 0.0
    angular: 
      x: 0.0
      y: 0.0
      z: 0.0
  - 
    linear: 
      x: 4.24214208837e-08
      y: -3.10169788332e-07
      z: 6.58109437255e-06
    angular: 
      x: 7.57347024013e-07
      y: -6.28283580064e-06
      z: 1.86334858333e-07
---
name: [ground_plane, MIT_Tunnel, racecar]
pose: 
  - 
    position: 
      x: 0.0
      y: 0.0
      z: 0.0
    orientation: 
      x: 0.0
      y: 0.0
      z: 0.0
      w: 1.0
  - 
    position: 
      x: 6.0
      y: 20.0
      z: 0.0
    orientation: 
      x: 0.0
      y: 0.0
      z: 0.0
      w: 1.0
  - 
    position: 
      x: -7.33867771242e-05
      y: -1.64393414838e-07
      z: -6.63873095351e-07
    orientation: 
      x: -5.30141221916e-10
      y: 9.06094077716e-07
      z: -1.40908770561e-06
      w: 0.999999999999
twist: 
  - 
    linear: 
      x: 0.0
      y: 0.0
      z: 0.0
    angular: 
      x: 0.0
      y: 0.0
      z: 0.0
  - 
    linear: 
      x: 0.0
      y: 0.0
      z: 0.0
    angular: 
      x: 0.0
      y: 0.0
      z: 0.0
  - 
    linear: 
      x: 4.24218100352e-08
      y: -3.10169788657e-07
      z: 6.58109435533e-06
    angular: 
      x: 7.57347102227e-07
      y: -6.28283671819e-06
      z: 1.86334887713e-07
---
name: [ground_plane, MIT_Tunnel, racecar]
pose: 
  - 
    position: 
      x: 0.0
      y: 0.0
      z: 0.0
    orientation: 
      x: 0.0
      y: 0.0
      z: 0.0
      w: 1.0
  - 
    position: 
      x: 6.0
      y: 20.0
      z: 0.0
    orientation: 
      x: 0.0
      y: 0.0
      z: 0.0
      w: 1.0
  - 
    position: 
      x: -7.33870568509e-05
      y: -1.64397435586e-07
      z: -6.63873092596e-07
    orientation: 
      x: -5.30137336221e-10
      y: 9.06094012724e-07
      z: -1.40909698241e-06
      w: 0.999999999999
twist: 
  - 
    linear: 
      x: 0.0
      y: 0.0
      z: 0.0
    angular: 
      x: 0.0
      y: 0.0
      z: 0.0
  - 
    linear: 
      x: 0.0
      y: 0.0
      z: 0.0
    angular: 
      x: 0.0
      y: 0.0
      z: 0.0
  - 
    linear: 
      x: 4.24222005298e-08
      y: -3.10169788312e-07
      z: 6.58109433486e-06
    angular: 
      x: 7.57347134301e-07
      y: -6.28283765949e-06
      z: 1.86334890063e-07
---
name: [ground_plane, MIT_Tunnel, racecar]
pose: 
  - 
    position: 
      x: 0.0
      y: 0.0
      z: 0.0
    orientation: 
      x: 0.0
      y: 0.0
      z: 0.0
      w: 1.0
  - 
    position: 
      x: 6.0
      y: 20.0
      z: 0.0
    orientation: 
      x: 0.0
      y: 0.0
      z: 0.0
      w: 1.0
  - 
    position: 
      x: -7.33873365774e-05
      y: -1.64401456329e-07
      z: -6.63873089862e-07
    orientation: 
      x: -5.3013344756e-10
      y: 9.06093947728e-07
      z: -1.40910625921e-06
      w: 0.999999999999
twist: 
  - 
    linear: 
      x: 0.0
      y: 0.0
      z: 0.0
    angular: 
      x: 0.0
      y: 0.0
      z: 0.0
  - 
    linear: 
      x: 0.0
      y: 0.0
      z: 0.0
    angular: 
      x: 0.0
      y: 0.0
      z: 0.0
  - 
    linear: 
      x: 4.2422590448e-08
      y: -3.10169781243e-07
      z: 6.58109431728e-06
    angular: 
      x: 7.57347183127e-07
      y: -6.28283860928e-06
      z: 1.86334894403e-07
---
name: [ground_plane, MIT_Tunnel, racecar]
pose: 
  - 
    position: 
      x: 0.0
      y: 0.0
      z: 0.0
    orientation: 
      x: 0.0
      y: 0.0
      z: 0.0
      w: 1.0
  - 
    position: 
      x: 6.0
      y: 20.0
      z: 0.0
    orientation: 
      x: 0.0
      y: 0.0
      z: 0.0
      w: 1.0
  - 
    position: 
      x: -7.33876163034e-05
      y: -1.64405477069e-07
      z: -6.63873087114e-07
    orientation: 
      x: -5.30129578633e-10
      y: 9.06093882744e-07
      z: -1.40911553602e-06
      w: 0.999999999999
twist: 
  - 
    linear: 
      x: 0.0
      y: 0.0
      z: 0.0
    angular: 
      x: 0.0
      y: 0.0
      z: 0.0
  - 
    linear: 
      x: 0.0
      y: 0.0
      z: 0.0
    angular: 
      x: 0.0
      y: 0.0
      z: 0.0
  - 
    linear: 
      x: 4.2422980767e-08
      y: -3.10169777791e-07
      z: 6.58109430062e-06
    angular: 
      x: 7.5734718649e-07
      y: -6.28283953184e-06
      z: 1.86334905741e-07
---
name: [ground_plane, MIT_Tunnel, racecar]
pose: 
  - 
    position: 
      x: 0.0
      y: 0.0
      z: 0.0
    orientation: 
      x: 0.0
      y: 0.0
      z: 0.0
      w: 1.0
  - 
    position: 
      x: 6.0
      y: 20.0
      z: 0.0
